[{
    "EstacionId": "1",
    "EstacionNombre": "Facultad de Derecho",
    "BicicletaDisponibles": "9",
    "EstacionDisponible": "SI",
    "Latitud": "-34.583271",
    "Longitud": "-58.392579",
    "Numero": "2260",
    "Lugar": "Figueroa Alcorta y Pueyrredón",
    "Piso": "",
    "AnclajesTotales": "28",
    "AnclajesDisponibles": "19"
},
{
    "EstacionId": "2",
    "EstacionNombre": "Retiro",
    "BicicletaDisponibles": "15",
    "EstacionDisponible": "SI",
    "Latitud": "-34.592966",
    "Longitud": "-58.374379",
    "Numero": "0",
    "Lugar": "Libertador altura Retiro",
    "Piso": "",
    "AnclajesTotales": "20",
    "AnclajesDisponibles": "5"
},
{
    "EstacionId":"3",
    "EstacionNombre":"Aduana",
    "BicicletaDisponibles":"2",
    "EstacionDisponible":"SI",
    "Latitud":"-34.611376",
    "Longitud":"-58.369009",
    "Numero":"0",
    "Lugar":"MONSERRAT",
    "Piso":"",
    "AnclajesTotales":"20",
    "AnclajesDisponibles":"18"
},
{
	"EstacionId":"4",
	"EstacionNombre":"Plaza Roma",
	"BicicletaDisponibles":"0",
	"EstacionDisponible":"SI",
	"Latitud":"-34.601714",
	"Longitud":"-58.369202",
	"Numero":"0",
	"Lugar":"SAN NICOLAS",
	"Piso":"",
	"AnclajesTotales":"20",
	"AnclajesDisponibles":"20"
},
{
	"EstacionId":"5",
	"EstacionNombre":"Plaza Italia",
	"BicicletaDisponibles":"3",
	"EstacionDisponible":"NO",
	"Latitud":"-34.580563",
	"Longitud":"-58.420605",
	"Numero":"2601",
	"Lugar":"PALERMO",
	"Piso":"",
	"AnclajesTotales":"28",
	"AnclajesDisponibles":"25"
},
{
	"EstacionId":"6",
	"EstacionNombre":"Parque Lezama",
	"BicicletaDisponibles":"8",
	"EstacionDisponible":"SI",
	"Latitud":"-34.628233",
	"Longitud":"-58.369606",
	"Numero":"0",
	"Lugar":"SAN TELMO",
	"Piso":"",
	"AnclajesTotales":"20",
	"AnclajesDisponibles":"12"
},
{
	"EstacionId":"7",
	"EstacionNombre":"Obelisco ",
	"BicicletaDisponibles":"0",
	"EstacionDisponible":"SI",
	"Latitud":"-34.605997",
	"Longitud":"-58.38098 ",
	"Numero":"200",
	"Lugar":"SAN NICOLAS",
	"Piso":"",
	"AnclajesTotales":"16",
	"AnclajesDisponibles":"16"
},
{
	"EstacionId":"8",
	"EstacionNombre":"Congreso",
	"BicicletaDisponibles":"6",
	"EstacionDisponible":"SI",
	"Latitud":"-34.609733",
	"Longitud":"-58.389253",
	"Numero":"0",
	"Lugar":"SAN NICOLAS",
	"Piso":"",
	"AnclajesTotales":"27",
	"AnclajesDisponibles":"21"
},
{
	"EstacionId":"9",
	"EstacionNombre":"Parque Las Heras",
	"BicicletaDisponibles":"4",
	"EstacionDisponible":"SI",
	"Latitud":"-34.585290",
	"Longitud":"-58.407598",
	"Numero":"0",
	"Lugar":"PALERMO",
	"Piso":"",
	"AnclajesTotales":"26",
	"AnclajesDisponibles":"22"
},
{
	"EstacionId":"10",
	"EstacionNombre":"Madero UCA",
	"BicicletaDisponibles":"1",
	"EstacionDisponible":"SI",
	"Latitud":"-34.616106",
	"Longitud":"-58.366017",
	"Numero":"0",
	"Lugar":"PUERTO MADERO",
	"Piso":"",
	"AnclajesTotales":"19",
	"AnclajesDisponibles":"18"
},
{
	"EstacionId":"11",
	"EstacionNombre":"Tribunales",
	"BicicletaDisponibles":"1",
	"EstacionDisponible":"SI",
	"Latitud":"-34.601343",
	"Longitud":"-58.385250",
	"Numero":"0",
	"Lugar":"SAN NICOLAS",
	"Piso":"",
	"AnclajesTotales":"20",
	"AnclajesDisponibles":"19"
},
{
	"EstacionId":"12",
	"EstacionNombre":"Plaza Vicente López",
	"BicicletaDisponibles":"1",
	"EstacionDisponible":"SI",
	"Latitud":"-34.592583",
	"Longitud":"-58.388965",
	"Numero":"0",
	"Lugar":"RECOLETA",
	"Piso":"",
	"AnclajesTotales":"15",
	"AnclajesDisponibles":"14"
},
{
	"EstacionId":"13",
	"EstacionNombre":"Once",
	"BicicletaDisponibles":"2",
	"EstacionDisponible":"SI",
	"Latitud":"-34.609881",
	"Longitud":"-58.406346",
	"Numero":"0",
	"Lugar":"BALVANERA",
	"Piso":"",
	"AnclajesTotales":"27",
	"AnclajesDisponibles":"25"
},
{
	"EstacionId":"14",
	"EstacionNombre":"Pacífico",
	"BicicletaDisponibles":"5",
	"EstacionDisponible":"NO",
	"Latitud":"-34.578112",
	"Longitud":"-58.426416",
	"Numero":"0",
	"Lugar":"PALERMO",
	"Piso":"",
	"AnclajesTotales":"13",
	"AnclajesDisponibles":"8"
},
{
	"EstacionId":"16",
	"EstacionNombre":"Legislatura",
	"BicicletaDisponibles":"2",
	"EstacionDisponible":"SI",
	"Latitud":"-34.610158",
	"Longitud":"-58.374814",
	"Numero":"0",
	"Lugar":"MONSERRAT",
	"Piso":"",
	"AnclajesTotales":"20",
	"AnclajesDisponibles":"18"
},
{
	"EstacionId":"17",
	"EstacionNombre":"Plaza Almagro",
	"BicicletaDisponibles":"2",
	"EstacionDisponible":"SI",
	"Latitud":"-34.606463",
	"Longitud":"-58.418705",
	"Numero":"0",
	"Lugar":"ALMAGRO",
	"Piso":"",
	"AnclajesTotales":"19",
	"AnclajesDisponibles":"17"
},
{
	"EstacionId":"18",
	"EstacionNombre":"Independencia",
	"BicicletaDisponibles":"2",
	"EstacionDisponible":"SI",
	"Latitud":"-34.617690",
	"Longitud":"-58.380473",
	"Numero":"0",
	"Lugar":"MONSERRAT",
	"Piso":"",
	"AnclajesTotales":"20",
	"AnclajesDisponibles":"18"
},
{
	"EstacionId":"19",
	"EstacionNombre":"Plaza San Martín",
	"BicicletaDisponibles":"1",
	"EstacionDisponible":"SI",
	"Latitud":"-34.595699",
	"Longitud":"-58.377203",
	"Numero":"750",
	"Lugar":"RETIRO",
	"Piso":"",
	"AnclajesTotales":"28",
	"AnclajesDisponibles":"27"
},
{
	"EstacionId":"20",
	"EstacionNombre":"Distrito Audiovisual",
	"BicicletaDisponibles":"7",
	"EstacionDisponible":"SI",
	"Latitud":"-34.579996",
	"Longitud":"-58.441615",
	"Numero":"0",
	"Lugar":"COLEGIALES",
	"Piso":"",
	"AnclajesTotales":"19",
	"AnclajesDisponibles":"12"
},
{
	"EstacionId":"21",
	"EstacionNombre":"Parque Patricios",
	"BicicletaDisponibles":"3",
	"EstacionDisponible":"SI",
	"Latitud":"-34.640112",
	"Longitud":"-58.406552",
	"Numero":"0",
	"Lugar":"PARQUE PATRICIOS",
	"Piso":"",
	"AnclajesTotales":"28",
	"AnclajesDisponibles":"25"
},
{
	"EstacionId":"22",
	"EstacionNombre":"Arenales",
	"BicicletaDisponibles":"2",
	"EstacionDisponible":"SI",
	"Latitud":"-34.594087",
	"Longitud":"-58.382662",
	"Numero":"0",
	"Lugar":"RETIRO",
	"Piso":"",
	"AnclajesTotales":"19",
	"AnclajesDisponibles":"17"
},
{
	"EstacionId":"23",
	"EstacionNombre":"Suipacha",
	"BicicletaDisponibles":"0",
	"EstacionDisponible":"SI",
	"Latitud":"-34.600140",
	"Longitud":"-58.379679",
	"Numero":"0",
	"Lugar":"SAN NICOLAS",
	"Piso":"",
	"AnclajesTotales":"14",
	"AnclajesDisponibles":"14"
},
{
	"EstacionId":"24",
	"EstacionNombre":"Alsina",
	"BicicletaDisponibles":"1",
	"EstacionDisponible":"SI",
	"Latitud":"-34.610656",
	"Longitud":"-58.380845",
	"Numero":"0",
	"Lugar":"MONSERRAT",
	"Piso":"",
	"AnclajesTotales":"21",
	"AnclajesDisponibles":"20"
},
{
	"EstacionId":"25",
	"EstacionNombre":"Plaza Güemes",
	"BicicletaDisponibles":"3",
	"EstacionDisponible":"SI",
	"Latitud":"-34.589746",
	"Longitud":"-58.416500",
	"Numero":"0",
	"Lugar":"PALERMO",
	"Piso":"",
	"AnclajesTotales":"21",
	"AnclajesDisponibles":"18"
},
{
	"EstacionId":"26",
	"EstacionNombre":"Juana Manso",
	"BicicletaDisponibles":"0",
	"EstacionDisponible":"SI",
	"Latitud":"-34.600525",
	"Longitud":"-58.363645",
	"Numero":"0",
	"Lugar":"PUERTO MADERO",
	"Piso":"",
	"AnclajesTotales":"20",
	"AnclajesDisponibles":"20"
},
{
	"EstacionId":"27",
	"EstacionNombre":"Montevideo",
	"BicicletaDisponibles":"3",
	"EstacionDisponible":"SI",
	"Latitud":"-34.599506",
	"Longitud":"-58.389902",
	"Numero":"1616",
	"Lugar":"SAN NICOLAS",
	"Piso":"",
	"AnclajesTotales":"16",
	"AnclajesDisponibles":"13"
},
{
	"EstacionId":"28",
	"EstacionNombre":"Plaza Boedo",
	"BicicletaDisponibles":"3",
	"EstacionDisponible":"SI",
	"Latitud":"-34.622995",
	"Longitud":"-58.41258 ",
	"Numero":"0",
	"Lugar":"SAN CRISTOBAL",
	"Piso":"",
	"AnclajesTotales":"20",
	"AnclajesDisponibles":"17"
},
{
	"EstacionId":"29",
	"EstacionNombre":"Parque Centenario ",
	"BicicletaDisponibles":"0",
	"EstacionDisponible":"SI",
	"Latitud":"-34.607873",
	"Longitud":"-58.433540",
	"Numero":"0",
	"Lugar":"CABALLITO",
	"Piso":"",
	"AnclajesTotales":"28",
	"AnclajesDisponibles":"28"
},
{
	"EstacionId":"30",
	"EstacionNombre":"Peña",
	"BicicletaDisponibles":"0",
	"EstacionDisponible":"SI",
	"Latitud":"-34.590586",
	"Longitud":"-58.397434",
	"Numero":"0",
	"Lugar":"RECOLETA",
	"Piso":"",
	"AnclajesTotales":"20",
	"AnclajesDisponibles":"20"
},
{
	"EstacionId":"31",
	"EstacionNombre":"Padilla",
	"BicicletaDisponibles":"1",
	"EstacionDisponible":"SI",
	"Latitud":"-34.603173",
	"Longitud":"-58.439635",
	"Numero":"0",
	"Lugar":"VILLA CRESPO",
	"Piso":"",
	"AnclajesTotales":"20",
	"AnclajesDisponibles":"19"
},
{
	"EstacionId":"32",
	"EstacionNombre":"Catedral",
	"BicicletaDisponibles":"1",
	"EstacionDisponible":"SI",
	"Latitud":"-34.607559",
	"Longitud":"-58.373600",
	"Numero":"0",
	"Lugar":"SAN NICOLAS",
	"Piso":"",
	"AnclajesTotales":"14",
	"AnclajesDisponibles":"13"
},
{
	"EstacionId":"33",
	"EstacionNombre":"Facultad de Medicina",
	"BicicletaDisponibles":"0",
	"EstacionDisponible":"SI",
	"Latitud":"-34.597211",
	"Longitud":"-58.398887",
	"Numero":"0",
	"Lugar":"RECOLETA",
	"Piso":"",
	"AnclajesTotales":"20",
	"AnclajesDisponibles":"20"
},
{
	"EstacionId":"34",
	"EstacionNombre":"Galerías Pacífico",
	"BicicletaDisponibles":"0",
	"EstacionDisponible":"SI",
	"Latitud":"-34.599097",
	"Longitud":"-58.37416 ",
	"Numero":"0",
	"Lugar":"SAN NICOLAS",
	"Piso":"",
	"AnclajesTotales":"14",
	"AnclajesDisponibles":"14"
},
{
	"EstacionId":"35",
	"EstacionNombre":"Ingeniero Butty",
	"BicicletaDisponibles":"1",
	"EstacionDisponible":"SI",
	"Latitud":"-34.596146",
	"Longitud":"-58.371839",
	"Numero":"0",
	"Lugar":"RETIRO",
	"Piso":"",
	"AnclajesTotales":"28",
	"AnclajesDisponibles":"27"
},
{
	"EstacionId":"36",
	"EstacionNombre":"Maipú",
	"BicicletaDisponibles":"1",
	"EstacionDisponible":"SI",
	"Latitud":"-34.604841",
	"Longitud":"-58.376584",
	"Numero":"0",
	"Lugar":"SAN NICOLAS",
	"Piso":"",
	"AnclajesTotales":"16",
	"AnclajesDisponibles":"15"
},
{
	"EstacionId":"37",
	"EstacionNombre":"Piedras",
	"BicicletaDisponibles":"1",
	"EstacionDisponible":"SI",
	"Latitud":"-34.607948",
	"Longitud":"-58.377993",
	"Numero":"0",
	"Lugar":"SAN NICOLAS",
	"Piso":"",
	"AnclajesTotales":"14",
	"AnclajesDisponibles":"13"
},
{
	"EstacionId":"38",
	"EstacionNombre":"Plaza Libertad",
	"BicicletaDisponibles":"0",
	"EstacionDisponible":"SI",
	"Latitud":"-34.596969",
	"Longitud":"-58.382798",
	"Numero":"0",
	"Lugar":"RETIRO",
	"Piso":"",
	"AnclajesTotales":"20",
	"AnclajesDisponibles":"20"
},
{
	"EstacionId":"40",
	"EstacionNombre":"Sarmiento",
	"BicicletaDisponibles":"0",
	"EstacionDisponible":"SI",
	"Latitud":"-34.604436",
	"Longitud":"-58.373785",
	"Numero":"0",
	"Lugar":"SAN NICOLAS",
	"Piso":"",
	"AnclajesTotales":"20",
	"AnclajesDisponibles":"20"
},
{
	"EstacionId":"41",
	"EstacionNombre":"Urquiza",
	"BicicletaDisponibles":"5",
	"EstacionDisponible":"SI",
	"Latitud":"-34.636356",
	"Longitud":"-58.40766 ",
	"Numero":"0",
	"Lugar":"PARQUE PATRICIOS",
	"Piso":"",
	"AnclajesTotales":"19",
	"AnclajesDisponibles":"14"
},
{
	"EstacionId":"42",
	"EstacionNombre":"Diagonal Norte",
	"BicicletaDisponibles":"0",
	"EstacionDisponible":"SI",
	"Latitud":"-34.604720",
	"Longitud":"-58.37967 ",
	"Numero":"0",
	"Lugar":"SAN NICOLAS",
	"Piso":"",
	"AnclajesTotales":"21",
	"AnclajesDisponibles":"21"
},
{
	"EstacionId":"43",
	"EstacionNombre":"Plaza Houssay",
	"BicicletaDisponibles":"1",
	"EstacionDisponible":"SI",
	"Latitud":"-34.599755",
	"Longitud":"-58.397834",
	"Numero":"2135",
	"Lugar":"RECOLETA",
	"Piso":"",
	"AnclajesTotales":"27",
	"AnclajesDisponibles":"26"
},
{
	"EstacionId":"44",
	"EstacionNombre":"Zoológico",
	"BicicletaDisponibles":"4",
	"EstacionDisponible":"SI",
	"Latitud":"-34.575548",
	"Longitud":"-58.413716",
	"Numero":"3300",
	"Lugar":"PALERMO",
	"Piso":"",
	"AnclajesTotales":"20",
	"AnclajesDisponibles":"16"
},
{
	"EstacionId":"45",
	"EstacionNombre":"Uruguay",
	"BicicletaDisponibles":"0",
	"EstacionDisponible":"SI",
	"Latitud":"-34.602752",
	"Longitud":"-58.386686",
	"Numero":"0",
	"Lugar":"SAN NICOLAS",
	"Piso":"",
	"AnclajesTotales":"20",
	"AnclajesDisponibles":"20"
},
{
	"EstacionId":"46",
	"EstacionNombre":"Chile",
	"BicicletaDisponibles":"4",
	"EstacionDisponible":"SI",
	"Latitud":"-34.616327",
	"Longitud":"-58.374491",
	"Numero":"726",
	"Lugar":"SAN TELMO",
	"Piso":"",
	"AnclajesTotales":"14",
	"AnclajesDisponibles":"10"
},
{
	"EstacionId":"47",
	"EstacionNombre":"Colegio Nacional Buenos Aires",
	"BicicletaDisponibles":"0",
	"EstacionDisponible":"NO",
	"Latitud":"-34.611002",
	"Longitud":"-58.373413",
	"Numero":"263",
	"Lugar":"MONSERRAT",
	"Piso":"",
	"AnclajesTotales":"0",
	"AnclajesDisponibles":"0"
},
{
	"EstacionId":"48",
	"EstacionNombre":"Perón",
	"BicicletaDisponibles":"3",
	"EstacionDisponible":"NO",
	"Latitud":"-34.605429",
	"Longitud":"-58.371528",
	"Numero":"339",
	"Lugar":"SAN NICOLAS",
	"Piso":"",
	"AnclajesTotales":"11",
	"AnclajesDisponibles":"8"
},
{
	"EstacionId":"49",
	"EstacionNombre":"Treinta y tres orientales",
	"BicicletaDisponibles":"5",
	"EstacionDisponible":"SI",
	"Latitud":"-34.628920",
	"Longitud":"-58.422321",
	"Numero":"4101",
	"Lugar":"BOEDO",
	"Piso":"",
	"AnclajesTotales":"20",
	"AnclajesDisponibles":"15"
},
{
	"EstacionId":"50",
	"EstacionNombre":"Hospital Rivadavia",
	"BicicletaDisponibles":"2",
	"EstacionDisponible":"SI",
	"Latitud":"-34.583712",
	"Longitud":"-58.401047",
	"Numero":"2516",
	"Lugar":"PALERMO",
	"Piso":"",
	"AnclajesTotales":"20",
	"AnclajesDisponibles":"18"
},
{
	"EstacionId":"51",
	"EstacionNombre":"Tucumán",
	"BicicletaDisponibles":"1",
	"EstacionDisponible":"NO",
	"Latitud":"-34.601347",
	"Longitud":"-58.382268",
	"Numero":"0",
	"Lugar":"SAN NICOLAS",
	"Piso":"",
	"AnclajesTotales":"14",
	"AnclajesDisponibles":"13"
},
{
	"EstacionId":"52",
	"EstacionNombre":"Sánchez de Bustamante",
	"BicicletaDisponibles":"0",
	"EstacionDisponible":"NO",
	"Latitud":"-34.607055",
	"Longitud":"-58.414823",
	"Numero":"0",
	"Lugar":"ALMAGRO",
	"Piso":"",
	"AnclajesTotales":"0",
	"AnclajesDisponibles":"0"
},
{
	"EstacionId":"53",
	"EstacionNombre":"Ricardo Rojas",
	"BicicletaDisponibles":"1",
	"EstacionDisponible":"SI",
	"Latitud":"-34.595389",
	"Longitud":"-58.374469",
	"Numero":"1031",
	"Lugar":"RETIRO",
	"Piso":"",
	"AnclajesTotales":"20",
	"AnclajesDisponibles":"19"
},
{
	"EstacionId":"54",
	"EstacionNombre":"Acuña de Figueroa",
	"BicicletaDisponibles":"3",
	"EstacionDisponible":"SI",
	"Latitud":"-34.598280",
	"Longitud":"-58.421928",
	"Numero":"0",
	"Lugar":"ALMAGRO",
	"Piso":"",
	"AnclajesTotales":"19",
	"AnclajesDisponibles":"16"
},
{
	"EstacionId":"55",
	"EstacionNombre":"Bouchard",
	"BicicletaDisponibles":"0",
	"EstacionDisponible":"SI",
	"Latitud":"-34.599390",
	"Longitud":"-58.369413",
	"Numero":"101",
	"Lugar":"RETIRO",
	"Piso":"",
	"AnclajesTotales":"19",
	"AnclajesDisponibles":"19"
},
{
	"EstacionId":"56",
	"EstacionNombre":"Plaza Palermo Viejo",
	"BicicletaDisponibles":"2",
	"EstacionDisponible":"SI",
	"Latitud":"-34.589416",
	"Longitud":"-58.425143",
	"Numero":"0",
	"Lugar":"PALERMO",
	"Piso":"",
	"AnclajesTotales":"16",
	"AnclajesDisponibles":"14"
},
{
	"EstacionId":"57",
	"EstacionNombre":"Belgrano",
	"BicicletaDisponibles":"0",
	"EstacionDisponible":"SI",
	"Latitud":"-34.613024",
	"Longitud":"-58.370706",
	"Numero":"482",
	"Lugar":"MONSERRAT",
	"Piso":"",
	"AnclajesTotales":"16",
	"AnclajesDisponibles":"16"
},
{
	"EstacionId":"58",
	"EstacionNombre":"Ministro Carranza",
	"BicicletaDisponibles":"4",
	"EstacionDisponible":"SI",
	"Latitud":"-34.575139",
	"Longitud":"-58.434778",
	"Numero":"5327",
	"Lugar":"PALERMO",
	"Piso":"",
	"AnclajesTotales":"20",
	"AnclajesDisponibles":"16"
},
{
	"EstacionId":"59",
	"EstacionNombre":"Coronel Díaz",
	"BicicletaDisponibles":"4",
	"EstacionDisponible":"SI",
	"Latitud":"-34.590202",
	"Longitud":"-58.411614",
	"Numero":"3328",
	"Lugar":"PALERMO",
	"Piso":"",
	"AnclajesTotales":"20",
	"AnclajesDisponibles":"16"
},
{
	"EstacionId":"60",
	"EstacionNombre":"25 de Mayo",
	"BicicletaDisponibles":"1",
	"EstacionDisponible":"SI",
	"Latitud":"-34.601586",
	"Longitud":"-58.371224",
	"Numero":"527",
	"Lugar":"SAN NICOLAS",
	"Piso":"",
	"AnclajesTotales":"20",
	"AnclajesDisponibles":"19"
},
{
	"EstacionId":"61",
	"EstacionNombre":"Ministerio de Economía",
	"BicicletaDisponibles":"1",
	"EstacionDisponible":"SI",
	"Latitud":"-34.609017",
	"Longitud":"-58.370908",
	"Numero":"101",
	"Lugar":"MONSERRAT",
	"Piso":"",
	"AnclajesTotales":"27",
	"AnclajesDisponibles":"26"
},
{
	"EstacionId":"62",
	"EstacionNombre":"Córdoba",
	"BicicletaDisponibles":"1",
	"EstacionDisponible":"SI",
	"Latitud":"-34.598506",
	"Longitud":"-58.376938",
	"Numero":"820",
	"Lugar":"RETIRO",
	"Piso":"",
	"AnclajesTotales":"18",
	"AnclajesDisponibles":"17"
},
{
	"EstacionId":"63",
	"EstacionNombre":"Reconquista",
	"BicicletaDisponibles":"1",
	"EstacionDisponible":"SI",
	"Latitud":"-34.599506",
	"Longitud":"-58.372761",
	"Numero":"716",
	"Lugar":"SAN NICOLAS",
	"Piso":"",
	"AnclajesTotales":"12",
	"AnclajesDisponibles":"11"
},
{
	"EstacionId":"64",
	"EstacionNombre":"Riobamba",
	"BicicletaDisponibles":"1",
	"EstacionDisponible":"SI",
	"Latitud":"-34.594263",
	"Longitud":"-58.394330",
	"Numero":"0",
	"Lugar":"RECOLETA",
	"Piso":"",
	"AnclajesTotales":"19",
	"AnclajesDisponibles":"18"
},
{
	"EstacionId":"65",
	"EstacionNombre":"Julián Álvarez",
	"BicicletaDisponibles":"1",
	"EstacionDisponible":"SI",
	"Latitud":"-34.587184",
	"Longitud":"-58.415815",
	"Numero":"3822",
	"Lugar":"PALERMO",
	"Piso":"",
	"AnclajesTotales":"20",
	"AnclajesDisponibles":"19"
},
{
	"EstacionId":"66",
	"EstacionNombre":"Billinghurst",
	"BicicletaDisponibles":"3",
	"EstacionDisponible":"SI",
	"Latitud":"-34.594615",
	"Longitud":"-58.413818",
	"Numero":"3508",
	"Lugar":"RECOLETA",
	"Piso":"",
	"AnclajesTotales":"8",
	"AnclajesDisponibles":"5"
},
{
	"EstacionId":"68",
	"EstacionNombre":"Rivarola",
	"BicicletaDisponibles":"2",
	"EstacionDisponible":"SI",
	"Latitud":"-34.606681",
	"Longitud":"-58.385455",
	"Numero":"175",
	"Lugar":"SAN NICOLAS",
	"Piso":"",
	"AnclajesTotales":"20",
	"AnclajesDisponibles":"18"
},
{
	"EstacionId":"69",
	"EstacionNombre":"Ecuador",
	"BicicletaDisponibles":"2",
	"EstacionDisponible":"SI",
	"Latitud":"-34.595984",
	"Longitud":"-58.404459",
	"Numero":"1200",
	"Lugar":"ALMAGRO",
	"Piso":"",
	"AnclajesTotales":"16",
	"AnclajesDisponibles":"14"
},
{
	"EstacionId":"70",
	"EstacionNombre":"Araoz",
	"BicicletaDisponibles":"1",
	"EstacionDisponible":"SI",
	"Latitud":"-34.592667",
	"Longitud":"-58.425827",
	"Numero":"1413",
	"Lugar":"PALERMO",
	"Piso":"",
	"AnclajesTotales":"20",
	"AnclajesDisponibles":"19"
},
{
	"EstacionId":"71",
	"EstacionNombre":"Cerrito",
	"BicicletaDisponibles":"0",
	"EstacionDisponible":"SI",
	"Latitud":"-34.603027",
	"Longitud":"-58.382824",
	"Numero":"1149",
	"Lugar":"SAN NICOLAS",
	"Piso":"",
	"AnclajesTotales":"27",
	"AnclajesDisponibles":"27"
},
{
	"EstacionId":"72",
	"EstacionNombre":"Venezuela",
	"BicicletaDisponibles":"10",
	"EstacionDisponible":"SI",
	"Latitud":"-34.613635",
	"Longitud":"-58.374675",
	"Numero":"490",
	"Lugar":"MONSERRAT",
	"Piso":"",
	"AnclajesTotales":"21",
	"AnclajesDisponibles":"11"
},
{
	"EstacionId":"74",
	"EstacionNombre":"Instituto Leloir",
	"BicicletaDisponibles":"0",
	"EstacionDisponible":"SI",
	"Latitud":"-34.604646",
	"Longitud":"-58.434769",
	"Numero":"401",
	"Lugar":"CABALLITO",
	"Piso":"",
	"AnclajesTotales":"27",
	"AnclajesDisponibles":"27"
},
{
	"EstacionId":"75",
	"EstacionNombre":"Plaza Primero de Mayo",
	"BicicletaDisponibles":"2",
	"EstacionDisponible":"SI",
	"Latitud":"-34.612383",
	"Longitud":" -58.39895",
	"Numero":"0",
	"Lugar":"BALVANERA",
	"Piso":"",
	"AnclajesTotales":"17",
	"AnclajesDisponibles":"15"
},
{
	"EstacionId":"76",
	"EstacionNombre":"Ayacucho",
	"BicicletaDisponibles":"3",
	"EstacionDisponible":"SI",
	"Latitud":"-34.607551",
	"Longitud":"-58.394959",
	"Numero":"0",
	"Lugar":"BALVANERA",
	"Piso":"",
	"AnclajesTotales":"20",
	"AnclajesDisponibles":"17"
},
{
	"EstacionId":"77",
	"EstacionNombre":"Sarandí",
	"BicicletaDisponibles":"6",
	"EstacionDisponible":"NO",
	"Latitud":"-34.611100",
	"Longitud":"-58.394690",
	"Numero":"0",
	"Lugar":"BALVANERA",
	"Piso":"",
	"AnclajesTotales":"20",
	"AnclajesDisponibles":"14"
},
{
	"EstacionId":"78",
	"EstacionNombre":"Arroyo",
	"BicicletaDisponibles":"0",
	"EstacionDisponible":"NO",
	"Latitud":"-34.591493",
	"Longitud":"-58.380276",
	"Numero":"0",
	"Lugar":"RETIRO",
	"Piso":"",
	"AnclajesTotales":"19",
	"AnclajesDisponibles":"19"
},
{
	"EstacionId":"79",
	"EstacionNombre":"Azucena Villaflor",
	"BicicletaDisponibles":"2",
	"EstacionDisponible":"NO",
	"Latitud":"-34.611870",
	"Longitud":"-58.363697",
	"Numero":"0",
	"Lugar":"PUERTO MADERO",
	"Piso":"",
	"AnclajesTotales":"15",
	"AnclajesDisponibles":"13"
},
{
	"EstacionId":"81",
	"EstacionNombre":"Balcarce",
	"BicicletaDisponibles":"1",
	"EstacionDisponible":"SI",
	"Latitud":"-34.615746",
	"Longitud":"-58.370755",
	"Numero":"683",
	"Lugar":"MONSERRAT",
	"Piso":"",
	"AnclajesTotales":"20",
	"AnclajesDisponibles":"19"
},
{
	"EstacionId":"82",
	"EstacionNombre":"Hospital Italiano",
	"BicicletaDisponibles":"2",
	"EstacionDisponible":"SI",
	"Latitud":"-34.608095",
	"Longitud":"-58.426184",
	"Numero":"0",
	"Lugar":"ALMAGRO",
	"Piso":"",
	"AnclajesTotales":"20",
	"AnclajesDisponibles":"18"
},
{
	"EstacionId":"84",
	"EstacionNombre":"Lavalle",
	"BicicletaDisponibles":"3",
	"EstacionDisponible":"SI",
	"Latitud":"-34.602192",
	"Longitud":"-58.395588",
	"Numero":"595",
	"Lugar":"BALVANERA",
	"Piso":"",
	"AnclajesTotales":"20",
	"AnclajesDisponibles":"17"
},
{
	"EstacionId":"85",
	"EstacionNombre":"Agüero",
	"BicicletaDisponibles":"0",
	"EstacionDisponible":"SI",
	"Latitud":"-34.594522",
	"Longitud":"-58.409038",
	"Numero":"0",
	"Lugar":"RECOLETA",
	"Piso":"",
	"AnclajesTotales":"20",
	"AnclajesDisponibles":"20"
},
{
	"EstacionId":"86",
	"EstacionNombre":"Saavedra",
	"BicicletaDisponibles":"0",
	"EstacionDisponible":"SI",
	"Latitud":"-34.621372",
	"Longitud":"-58.401772",
	"Numero":"1027",
	"Lugar":"SAN CRISTOBAL",
	"Piso":"",
	"AnclajesTotales":"20",
	"AnclajesDisponibles":"20"
},
{
	"EstacionId":"87",
	"EstacionNombre":"Guayaquil",
	"BicicletaDisponibles":"2",
	"EstacionDisponible":"SI",
	"Latitud":"-34.619823",
	"Longitud":"-58.431598",
	"Numero":"213",
	"Lugar":"CABALLITO",
	"Piso":"",
	"AnclajesTotales":"15",
	"AnclajesDisponibles":"13"
},
{
	"EstacionId":"88",
	"EstacionNombre":"Misiones",
	"BicicletaDisponibles":"2",
	"EstacionDisponible":"SI",
	"Latitud":"-34.612886",
	"Longitud":"-58.404286",
	"Numero":"0",
	"Lugar":"BALVANERA",
	"Piso":"",
	"AnclajesTotales":"20",
	"AnclajesDisponibles":"18"
},
{
	"EstacionId":"90",
	"EstacionNombre":"Gutierrez",
	"BicicletaDisponibles":"2",
	"EstacionDisponible":"SI",
	"Latitud":"-34.586646",
	"Longitud":"-58.399941",
	"Numero":"2685",
	"Lugar":"RECOLETA",
	"Piso":"",
	"AnclajesTotales":"20",
	"AnclajesDisponibles":"18"
},
{
	"EstacionId":"91",
	"EstacionNombre":"Pasco",
	"BicicletaDisponibles":"2",
	"EstacionDisponible":"SI",
	"Latitud":"-34.617276",
	"Longitud":"-58.397672",
	"Numero":"698",
	"Lugar":"BALVANERA",
	"Piso":"",
	"AnclajesTotales":"20",
	"AnclajesDisponibles":"18"
},
{
	"EstacionId":"92",
	"EstacionNombre":"Salcedo",
	"BicicletaDisponibles":"1",
	"EstacionDisponible":"NO",
	"Latitud":"-34.631618",
	"Longitud":"-58.404982",
	"Numero":"2908",
	"Lugar":"PARQUE PATRICIOS",
	"Piso":"",
	"AnclajesTotales":"8",
	"AnclajesDisponibles":"7"
},
{
	"EstacionId":"93",
	"EstacionNombre":"Carlos Calvo",
	"BicicletaDisponibles":"0",
	"EstacionDisponible":"SI",
	"Latitud":"-34.620744",
	"Longitud":"-58.394449",
	"Numero":"1010",
	"Lugar":"SAN CRISTOBAL",
	"Piso":"",
	"AnclajesTotales":"20",
	"AnclajesDisponibles":"20"
},
{
	"EstacionId":"94",
	"EstacionNombre":"Guzmán",
	"BicicletaDisponibles":"0",
	"EstacionDisponible":"SI",
	"Latitud":"-34.591811",
	"Longitud":"-58.449442",
	"Numero":"101",
	"Lugar":"CHACARITA",
	"Piso":"",
	"AnclajesTotales":"26",
	"AnclajesDisponibles":"26"
},
{
	"EstacionId":"95",
	"EstacionNombre":"Esmeralda",
	"BicicletaDisponibles":"0",
	"EstacionDisponible":"NO",
	"Latitud":"-34.602210",
	"Longitud":"-58.378212",
	"Numero":"510",
	"Lugar":"SAN NICOLAS",
	"Piso":"",
	"AnclajesTotales":"19",
	"AnclajesDisponibles":"19"
},
{
	"EstacionId":"96",
	"EstacionNombre":"Carlos Gardel",
	"BicicletaDisponibles":"4",
	"EstacionDisponible":"SI",
	"Latitud":"-34.602914",
	"Longitud":"-58.411465",
	"Numero":"3302",
	"Lugar":"BALVANERA",
	"Piso":"",
	"AnclajesTotales":"19",
	"AnclajesDisponibles":"15"
},
{
	"EstacionId":"98",
	"EstacionNombre":"Moreno",
	"BicicletaDisponibles":"0",
	"EstacionDisponible":"SI",
	"Latitud":"-34.611711",
	"Longitud":"-58.378285",
	"Numero":"834",
	"Lugar":"MONSERRAT",
	"Piso":"",
	"AnclajesTotales":"15",
	"AnclajesDisponibles":"15"
},
{
	"EstacionId":"99",
	"EstacionNombre":"Malabia",
	"BicicletaDisponibles":"5",
	"EstacionDisponible":"SI",
	"Latitud":"-34.596331",
	"Longitud":"-58.435565",
	"Numero":"780",
	"Lugar":"VILLA CRESPO",
	"Piso":"",
	"AnclajesTotales":"18",
	"AnclajesDisponibles":"13"
},
{
	"EstacionId":"100",
	"EstacionNombre":"Castillo",
	"BicicletaDisponibles":"4",
	"EstacionDisponible":"NO",
	"Latitud":"-34.592720",
	"Longitud":"-58.436821",
	"Numero":"815",
	"Lugar":"VILLA CRESPO",
	"Piso":"",
	"AnclajesTotales":"20",
	"AnclajesDisponibles":"16"
},
{
	"EstacionId":"101",
	"EstacionNombre":"Fitz Roy",
	"BicicletaDisponibles":"0",
	"EstacionDisponible":"SI",
	"Latitud":"-34.589107",
	"Longitud":"-58.442351",
	"Numero":"1092",
	"Lugar":"CHACARITA",
	"Piso":"",
	"AnclajesTotales":"19",
	"AnclajesDisponibles":"19"
},
{
	"EstacionId":"105",
	"EstacionNombre":"15 de Noviembre",
	"BicicletaDisponibles":"6",
	"EstacionDisponible":"SI",
	"Latitud":"-34.634063",
	"Longitud":"-58.401144",
	"Numero":"2687",
	"Lugar":"PARQUE PATRICIOS",
	"Piso":"",
	"AnclajesTotales":"16",
	"AnclajesDisponibles":"10"
},
{
	"EstacionId":"106",
	"EstacionNombre":"Rincón",
	"BicicletaDisponibles":"3",
	"EstacionDisponible":"SI",
	"Latitud":"-34.615164",
	"Longitud":"-58.395904",
	"Numero":"2091",
	"Lugar":"BALVANERAS",
	"Piso":"",
	"AnclajesTotales":"20",
	"AnclajesDisponibles":"17"
},
{
	"EstacionId":"108",
	"EstacionNombre":"Usina del Arte",
	"BicicletaDisponibles":"2",
	"EstacionDisponible":"SI",
	"Latitud":"-34.628595",
	"Longitud":"-58.355914",
	"Numero":"0",
	"Lugar":"LA BOCA",
	"Piso":"",
	"AnclajesTotales":"28",
	"AnclajesDisponibles":"26"
},
{
	"EstacionId":"109",
	"EstacionNombre":"Lerma",
	"BicicletaDisponibles":"2",
	"EstacionDisponible":"SI",
	"Latitud":"-34.596712",
	"Longitud":"-58.429594",
	"Numero":"185",
	"Lugar":"VILLA CRESPO",
	"Piso":"",
	"AnclajesTotales":"20",
	"AnclajesDisponibles":"18"
},
{
	"EstacionId":"110",
	"EstacionNombre":"Guardia Vieja",
	"BicicletaDisponibles":"1",
	"EstacionDisponible":"SI",
	"Latitud":"-34.601738",
	"Longitud":"-58.415436",
	"Numero":"3606",
	"Lugar":"ALMAGRO",
	"Piso":"",
	"AnclajesTotales":"20",
	"AnclajesDisponibles":"19"
},
{
	"EstacionId":"111",
	"EstacionNombre":"Macacha Güemes",
	"BicicletaDisponibles":"5",
	"EstacionDisponible":"SI",
	"Latitud":"-34.604829",
	"Longitud":"-58.363910",
	"Numero":"0",
	"Lugar":"PUERTO MADERO",
	"Piso":"",
	"AnclajesTotales":"28",
	"AnclajesDisponibles":"23"
},
{
	"EstacionId":"112",
	"EstacionNombre":"9 DE JULIO",
	"BicicletaDisponibles":"0",
	"EstacionDisponible":"SI",
	"Latitud":"-34.612118",
	"Longitud":"-58.381256",
	"Numero":"0",
	"Lugar":"MONSERRAT",
	"Piso":"",
	"AnclajesTotales":"16",
	"AnclajesDisponibles":"16"
},
{
	"EstacionId":"113",
	"EstacionNombre":"Guatemala",
	"BicicletaDisponibles":"4",
	"EstacionDisponible":"NO",
	"Latitud":"-34.585635",
	"Longitud":"-58.425198",
	"Numero":"4799",
	"Lugar":"PALERMO",
	"Piso":"",
	"AnclajesTotales":"20",
	"AnclajesDisponibles":"16"
},
{
	"EstacionId":"114",
	"EstacionNombre":"Della Paolera",
	"BicicletaDisponibles":"0",
	"EstacionDisponible":"SI",
	"Latitud":"-34.594811",
	"Longitud":"-58.372649",
	"Numero":"297",
	"Lugar":"RETIRO",
	"Piso":"",
	"AnclajesTotales":"26",
	"AnclajesDisponibles":"26"
},
{
	"EstacionId":"115",
	"EstacionNombre":"Quintana",
	"BicicletaDisponibles":"1",
	"EstacionDisponible":"NO",
	"Latitud":"-34.587660",
	"Longitud":"-58.390828",
	"Numero":"600",
	"Lugar":"RECOLETA",
	"Piso":"",
	"AnclajesTotales":"15",
	"AnclajesDisponibles":"14"
},
{
	"EstacionId":"118",
	"EstacionNombre":"México",
	"BicicletaDisponibles":"0",
	"EstacionDisponible":"SI",
	"Latitud":"-34.616790",
	"Longitud":"-58.402795",
	"Numero":"3",
	"Lugar":"BALVANEDA",
	"Piso":"",
	"AnclajesTotales":"20",
	"AnclajesDisponibles":"20"
},
{
	"EstacionId":"120",
	"EstacionNombre":"Hospital Ramos Mejía",
	"BicicletaDisponibles":"1",
	"EstacionDisponible":"SI",
	"Latitud":"-34.617503",
	"Longitud":"-58.408309",
	"Numero":"3084",
	"Lugar":"BALVANERA",
	"Piso":"",
	"AnclajesTotales":"20",
	"AnclajesDisponibles":"19"
},
{
	"EstacionId":"121",
	"EstacionNombre":"Yatay",
	"BicicletaDisponibles":"0",
	"EstacionDisponible":"SI",
	"Latitud":"-34.600810",
	"Longitud":"-58.428378",
	"Numero":"925",
	"Lugar":"VILLA CRESPO",
	"Piso":"",
	"AnclajesTotales":"18",
	"AnclajesDisponibles":"18"
},
{
	"EstacionId":"122",
	"EstacionNombre":"Costa Rica",
	"BicicletaDisponibles":"2",
	"EstacionDisponible":"NO",
	"Latitud":"-34.591643",
	"Longitud":"-58.420404",
	"Numero":"4090",
	"Lugar":"PALERMO",
	"Piso":"",
	"AnclajesTotales":"20",
	"AnclajesDisponibles":"18"
},
{
	"EstacionId":"123",
	"EstacionNombre":"Armenia",
	"BicicletaDisponibles":"0",
	"EstacionDisponible":"SI",
	"Latitud":"-34.584518",
	"Longitud":"-58.419755",
	"Numero":"0",
	"Lugar":"PALERMO",
	"Piso":"",
	"AnclajesTotales":"20",
	"AnclajesDisponibles":"20"
},
{
	"EstacionId":"128",
	"EstacionNombre":"Plaza Hipolito Bouchard",
	"BicicletaDisponibles":"0",
	"EstacionDisponible":"SI",
	"Latitud":"-34.604129",
	"Longitud":"-58.368302",
	"Numero":"0",
	"Lugar":"SAN NICOLAS",
	"Piso":"",
	"AnclajesTotales":"20",
	"AnclajesDisponibles":"20"
},
{
	"EstacionId":"129",
	"EstacionNombre":"Velasco",
	"BicicletaDisponibles":"0",
	"EstacionDisponible":"SI",
	"Latitud":"-34.600181",
	"Longitud":"-58.434893",
	"Numero":"285",
	"Lugar":"VILLA CRESPO",
	"Piso":"",
	"AnclajesTotales":"20",
	"AnclajesDisponibles":"20"
},
{
	"EstacionId":"132",
	"EstacionNombre":"Corrientes",
	"BicicletaDisponibles":"0",
	"EstacionDisponible":"SI",
	"Latitud":"-34.603130",
	"Longitud":"-58.372621",
	"Numero":"420",
	"Lugar":"SAN NICOLAS",
	"Piso":"",
	"AnclajesTotales":"7",
	"AnclajesDisponibles":"7"
},
{
	"EstacionId":"134",
	"EstacionNombre":"Don Bosco ",
	"BicicletaDisponibles":"1",
	"EstacionDisponible":"SI",
	"Latitud":"-34.611956",
	"Longitud":"-58.415363",
	"Numero":"5",
	"Lugar":"ALMAGRO",
	"Piso":"",
	"AnclajesTotales":"20",
	"AnclajesDisponibles":"19"
},
{
	"EstacionId":"135",
	"EstacionNombre":"Marcelo T. de Alvear",
	"BicicletaDisponibles":"0",
	"EstacionDisponible":"SI",
	"Latitud":"-34.597634",
	"Longitud":"-58.378421",
	"Numero":"0",
	"Lugar":"SAN NICOLAS",
	"Piso":"",
	"AnclajesTotales":"20",
	"AnclajesDisponibles":"20"
},
{
	"EstacionId":"136",
	"EstacionNombre":"Acevedo",
	"BicicletaDisponibles":"1",
	"EstacionDisponible":"SI",
	"Latitud":"-34.59983 ",
	"Longitud":"-58.442766",
	"Numero":"608",
	"Lugar":"VILLA CRESPO",
	"Piso":"",
	"AnclajesTotales":"19",
	"AnclajesDisponibles":"18"
},
{
	"EstacionId":"144",
	"EstacionNombre":"Pueyrredón",
	"BicicletaDisponibles":"3",
	"EstacionDisponible":"SI",
	"Latitud":"-34.601719",
	"Longitud":"-58.405979",
	"Numero":"0",
	"Lugar":"BALVANERA",
	"Piso":"",
	"AnclajesTotales":"20",
	"AnclajesDisponibles":"17"
},
{
	"EstacionId":"146",
	"EstacionNombre":"Hospital Francés",
	"BicicletaDisponibles":"0",
	"EstacionDisponible":"SI",
	"Latitud":"-34.622049",
	"Longitud":"-58.407355",
	"Numero":"0",
	"Lugar":"SAN CRISTOBAL",
	"Piso":"",
	"AnclajesTotales":"20",
	"AnclajesDisponibles":"20"
},
{
	"EstacionId":"149",
	"EstacionNombre":"Lima",
	"BicicletaDisponibles":"0",
	"EstacionDisponible":"SI",
	"Latitud":"-34.615268",
	"Longitud":"-58.381586",
	"Numero":"0",
	"Lugar":"MONSERRTAT ",
	"Piso":"",
	"AnclajesTotales":"16",
	"AnclajesDisponibles":"16"
},
{
	"EstacionId":"150",
	"EstacionNombre":"Vera Peñaloza",
	"BicicletaDisponibles":"0",
	"EstacionDisponible":"SI",
	"Latitud":"-34.617604",
	"Longitud":"-58.362774",
	"Numero":"0",
	"Lugar":"PUERTO MADERO",
	"Piso":"",
	"AnclajesTotales":"27",
	"AnclajesDisponibles":"27"
},
{
	"EstacionId":"151",
	"EstacionNombre":"Aime Paine",
	"BicicletaDisponibles":"3",
	"EstacionDisponible":"SI",
	"Latitud":"-34.611452",
	"Longitud":"-58.359901",
	"Numero":"553",
	"Lugar":"PUERTO MADERO",
	"Piso":"",
	"AnclajesTotales":"28",
	"AnclajesDisponibles":"25"
},
{
	"EstacionId":"152",
	"EstacionNombre":"Julieta Lanteri",
	"BicicletaDisponibles":"6",
	"EstacionDisponible":"SI",
	"Latitud":"-34.617832",
	"Longitud":"-58.359849",
	"Numero":"0",
	"Lugar":"PUERTO MADERO",
	"Piso":"",
	"AnclajesTotales":"20",
	"AnclajesDisponibles":"14"
},
{
	"EstacionId":"154",
	"EstacionNombre":"Gallo",
	"BicicletaDisponibles":"3",
	"EstacionDisponible":"SI",
	"Latitud":"-34.600743",
	"Longitud":"-58.412345",
	"Numero":"5",
	"Lugar":"ALMAGRO",
	"Piso":"",
	"AnclajesTotales":"20",
	"AnclajesDisponibles":"17"
},
{
	"EstacionId":"161",
	"EstacionNombre":"Humahuaca",
	"BicicletaDisponibles":"2",
	"EstacionDisponible":"SI",
	"Latitud":"-34.602063",
	"Longitud":"-58.419812",
	"Numero":"3918",
	"Lugar":"ALMAGRO",
	"Piso":"",
	"AnclajesTotales":"20",
	"AnclajesDisponibles":"18"
},
{
	"EstacionId":"164",
	"EstacionNombre":"Facultad de Ingenieria",
	"BicicletaDisponibles":"1",
	"EstacionDisponible":"SI",
	"Latitud":"-34.618119",
	"Longitud":"-58.366840",
	"Numero":"0",
	"Lugar":"SAN TELMO",
	"Piso":"",
	"AnclajesTotales":"20",
	"AnclajesDisponibles":"19"
},
{
	"EstacionId":"166",
	"EstacionNombre":"Cementerio de la Recoleta",
	"BicicletaDisponibles":"1",
	"EstacionDisponible":"SI",
	"Latitud":"-34.588995",
	"Longitud":"-58.393688",
	"Numero":"2050",
	"Lugar":"RECOLETA",
	"Piso":"",
	"AnclajesTotales":"20",
	"AnclajesDisponibles":"19"
},
{
	"EstacionId":"167",
	"EstacionNombre":"Hipolito Yrigoyen ",
	"BicicletaDisponibles":"0",
	"EstacionDisponible":"SI",
	"Latitud":"-34.614989",
	"Longitud":"-58.427478",
	"Numero":"0",
	"Lugar":"ALMAGRO",
	"Piso":"",
	"AnclajesTotales":"28",
	"AnclajesDisponibles":"28"
},
{
	"EstacionId":"175",
	"EstacionNombre":"Esmeralda y Corrientes",
	"BicicletaDisponibles":"2",
	"EstacionDisponible":"SI",
	"Latitud":"-34.603759",
	"Longitud":"-58.378074",
	"Numero":"390",
	"Lugar":"SAN NICOLAS",
	"Piso":"",
	"AnclajesTotales":"18",
	"AnclajesDisponibles":"16"
},
{
	"EstacionId":"600",
	"EstacionNombre":"PALACIO LEZAMA",
	"BicicletaDisponibles":"2",
	"EstacionDisponible":"NO",
	"Latitud":"-34.688546",
	"Longitud":"-58.397712",
	"Numero":"346",
	"Lugar":"LA BOCA ",
	"Piso":"",
	"AnclajesTotales":"4",
	"AnclajesDisponibles":"2"
},
{
	"EstacionId":"900",
	"EstacionNombre":"Estacion de Pruebas Serttel",
	"BicicletaDisponibles":"0",
	"EstacionDisponible":"NO",
	"Latitud":"123       ",
	"Longitud":"123       ",
	"Numero":"900",
	"Lugar":"UTE",
	"Piso":"",
	"AnclajesTotales":"14",
	"AnclajesDisponibles":"14"
},
{
	"EstacionId":"901",
	"EstacionNombre":"Serttel 2",
	"BicicletaDisponibles":"0",
	"EstacionDisponible":"NO",
	"Latitud":"",
	"Longitud":"",
	"Numero":"0",
	"Lugar":"CABA",
	"Piso":"",
	"AnclajesTotales":"28",
	"AnclajesDisponibles":"28"
}]
